[
  {
    "id": "001",
    "name": "三田本店",
    "address": "〒108-0073 東京都港区三田２丁目１６−4",
    "close": "日・祝",
    "open": "昼の部 8：30頃～15：00頃　夜の部 17：00頃～20：00頃",
    "latLng": {
      "lat": 35.6480734,
      "lng": 139.7416154
    }
  },
  {
    "id": "002",
    "name": "目黒店",
    "address":"〒153-0063 東京都目黒区目黒３丁目７−2",
    "close": "水",
    "open": "昼の部 11：00～15：00　夜の部 18：00～22：00",
    "latLng": {
      "lat": 35.6342162,
      "lng": 139.7070931  
    }
  },
  {
    "id": "003",
    "name": "仙川店",
    "address":"〒182-0002 東京都調布市仙川町１丁目１０−17",
    "close": "日祝",
    "open": "17:00~21:00",
    "latLng": {
      "lat": 35.661763,
      "lng": 139.5838974
    }
  },
  {
    "id": "004",
    "name": "新宿歌舞伎町店",
    "address":"〒160-0021 東京都新宿区歌舞伎町２丁目３７−5 日新ビル 1F",
    "close": "水曜日 不定休",
    "open": "11：30～27：00",
    "latLng": {
      "lat": 35.6961434,
      "lng": 139.701927
    }
  },
  {
    "id": "005",
    "name": "品川店",
    "address":"〒140-0001 東京都品川区北品川１丁目１８−5",
    "close": "日・祝",
    "open": "11：00～14：30　17：00～21：00 土　11：00～14：00",
    "latLng": {
      "lat": 35.6239201,
      "lng": 139.7430076      
    }
  },
  {
    "id": "006",
    "name": "新宿小滝橋通り店",
    "address":"〒160-0023 東京都新宿区西新宿７丁目５−5",
    "close": "定休日無（元日は休み）",
    "open": "11：00～23：00",
    "latLng": {
      "lat": 35.6964755,
      "lng": 139.6984888      
    }
  },
  {
    "id": "007",
    "name": "環七新新代田店",
    "address":"〒155-0033 東京都世田谷区代田５丁目２９",
    "close": "不明",
    "open": "【平日】11：00～14：00くらい　17：00～20：00くらい 【土・日・祝】11：00～15：00くらい",
    "latLng": {
      "lat": 35.662598,
      "lng": 139.660524      
    }
  },
  {
    "id": "008",
    "name": "八王子野猿街道店２",
    "address":"〒192-0355 東京都八王子市堀之内２丁目１３−16",
    "close": "月（祝日の場合10:00~17:00）",
    "open": "【火~金】11：00～14：30頃　17：00～22:00頃 【土・祝】11：00～15：00頃　16：30～21：30頃 【日】10:30頃～17:00頃",
    "latLng": {
      "lat": 35.6295251,
      "lng": 139.4013622      
    }
  },
  {
    "id": "009",
    "name": "池袋東口店",
    "address":"〒171-0022 東京都豊島区南池袋２丁目２７−17",
    "close": "月（月が祝の場合は翌日が休み）",
    "open": "11：00～23：00",
    "latLng": {
      "lat": 35.7282387,
      "lng": 139.7138843      
    }
  },
  {
    "id": "010",
    "name": "亀戸店",
    "address":"〒136-0071 東京都江東区亀戸４丁目３５−17",
    "close": "火（2019/7/23から火曜日も営業予定）",
    "open": "【昼】11：00～14：30　【夜】17：30～21：30",
    "latLng": {
      "lat": 35.7019695,
      "lng": 139.8266954      
    }
  },
  {
    "id": "011",
    "name": "京急川崎店",
    "address":"〒210-0001 神奈川県川崎市川崎区本町２丁目10-1",
    "close": "日・祝",
    "open": "【昼】11：00～14：00　【夜】18：00～22：00 【土】11：00～16：00",
    "latLng": {
      "lat": 35.5349428,
      "lng": 139.7053677      
    }
  },
  {
    "id": "012",
    "name": "府中店",
    "address":"〒183-0022 東京都府中市宮西町１−15-5",
    "close": "土・日・祝",
    "open": "17：00～23：00（L.O.22：30）",
    "latLng": {
      "lat": 35.6720644,
      "lng": 139.4772974      
    }
  },
  {
    "id": "013",
    "name": "松戸駅前店",
    "address":"〒271-0091 千葉県松戸市本町１７−9",
    "close": "日　祝日不定休（月祝の場合変則営業)",
    "open": "【第１・第３・第５月曜〜金】11:00~14:00/18:00~21:00 【第２・第４月曜】18:00~21:00 【土】11：00～14：00/17：30～20：30",
    "latLng": {
      "lat": 35.7859642,
      "lng": 139.8993563      
    }
  },
  {
    "id": "014",
    "name": "めじろ台店",
    "address":"〒193-0942 東京都八王子市椚田町513-9",
    "close": "日・木・祝",
    "open": "【昼】11：30～14：30　【夜】18：00～21：00",
    "latLng": {
      "lat": 35.6389581,
      "lng": 139.3122311      
    }
  },
  {
    "id": "015",
    "name": "荻窪店",
    "address":"〒167-0051 東京都杉並区荻窪４丁目３３−1 荻窪白馬ビル",
    "close": "土・日・祝",
    "open": "11：30～14：30頃　18：00～22：00頃",
    "latLng": {
      "lat": 35.7036319,
      "lng": 139.6263121      
    }
  },
  {
    "id": "016",
    "name": "上野毛店",
    "address":"〒158-0093 東京都世田谷区上野毛１丁目２６−16",
    "close": "日・祝",
    "open": "平日11：00～14：15頃/18：00～22：00 土11：00～14：30",
    "latLng": {
      "lat": 35.6124329,
      "lng": 139.6389814      
    }
  },
  {
    "id": "017",
    "name": "京成大久保店",
    "address":"〒274-0072 千葉県船橋市三山２丁目１−11",
    "close": "日・祝",
    "open": "11：00～15：00",
    "latLng": {
      "lat": 35.6914997,
      "lng": 140.0496217      
    }
  },
  {
    "id": "018",
    "name": "環七一之江店",
    "address":"〒132-0024 東京都江戸川区一之江８丁目３−4",
    "close": "水",
    "open": "【平日】11：00～14：00/17：30～20：30 【土・日・祝】10：00～14：00",
    "latLng": {
      "lat": 35.6840798,
      "lng": 139.8819586      
    }
  },
  {
    "id": "019",
    "name": "相模大野店",
    "address":"〒252-0303 神奈川県相模原市南区相模大野６丁目６−6",
    "close": "月",
    "open": "【火〜金】10：30～14：00/17：30～21：00 【土（営業できる日曜）】10：30～15：00",
    "latLng": {
      "lat": 35.5292457,
      "lng": 139.4308364      
    }
  },
  {
    "id": "020",
    "name": "横浜関内店",
    "address":"〒231-0033 神奈川県横浜市中区長者町６丁目94",
    "close": "水",
    "open": "11：00～14：30　18：00～22：00",
    "latLng": {
      "lat": 35.4420058,
      "lng": 139.6306747      
    }
  },
  {
    "id": "021",
    "name": "神田神保町店",
    "address":"〒101-0051 東京都千代田区神田神保町１丁目２１−4",
    "close": "日・祝",
     "open": "11：00～17：30",
    "latLng": {
      "lat": 35.6951792,
      "lng": 139.7608258      
    }
  },
  {
    "id": "022",
    "name": "小岩店",
    "address":"〒133-0057 東京都江戸川区西小岩３丁目３１−13",
    "close": "土・日・祝",
    "open": "10：30～15：00",
    "latLng": {
      "lat": 35.7349493,
      "lng": 139.8798906      
    }
  },
  {
    "id": "023",
    "name": "ひばりヶ丘駅前店",
    "address":"〒188-0001 東京都西東京市谷戸町３丁目２７−24 ひばりヶ丘プラザ1F",
    "close": "日・祝（不定休）",
    "open": "【平日】11：30～14：30/17：45～21：30 【土】10：30～16：30",
    "latLng": {
      "lat": 35.7500749,
      "lng": 139.543763      
    }
  },
  {
    "id": "024",
    "name": "桜台駅前店",
    "address":"〒176-0002 東京都練馬区桜台１丁目５−1",
    "close": "日・祝（不定休）",
    "open": "【月・火・水】11：00～14：00（平日昼の部は油そばのみの提供）/17：30～23：30 【木・金】17：30～23：30　【土】10：00～16：00",
    "latLng": {
      "lat": 35.738713,
      "lng": 139.6619951      
    }
  },
  {
    "id": "025",
    "name": "栃木街道店",
    "address":"〒321-0225 栃木県下都賀郡壬生町本丸２丁目１５−67",
    "close": "日・祝日不定休",
    "open": "【平日】11：30～14：45/18：00～21：00 【土】11：30～15：30",
    "latLng": {
      "lat": 36.4227922,
      "lng": 139.7955653      
    }
  },
  {
    "id": "026",
    "name": "立川店",
    "address":"〒190-0023 東京都立川市柴崎町２丁目１０−1",
    "close": "日・木",
    "open": "【平日】11：00～15：00 【土】11：00～16：00 【祝】11：00～16：00",
    "latLng": {
      "lat": 35.6964417,
      "lng": 139.4094476      
    }
  },
  {
    "id": "027",
    "name": "千住大橋駅前店",
    "address":"〒120-0038 東京都足立区千住橋戸町10-8",
    "close": "土曜日曜祝日",
    "open": "11：00～14：00",
    "latLng": {
      "lat": 35.7425825,
      "lng": 139.797052      
    }
  },
  {
    "id": "028",
    "name": "茨城守谷店",
    "address":"〒302-0124 茨城県守谷市美園４丁目１−5 美園ビル 1F",
    "close": "日",
     "open": "【平日】11：30～14：30（L.O.14:15）/18：00～21：30（L.O.21:15） 【土】11：30頃～16：00（L.O.１５：４５）",
    "latLng": {
      "lat": 35.9239694,
      "lng": 140.0008778      
    }
  },
  {
    "id": "029",
    "name": "湘南藤沢店",
    "address":"〒251-0053 神奈川県藤沢市本町１丁目１０−14",
    "close": "当面の間日曜定休",
    "open": "10:30〜15:00",
    "latLng": {
      "lat": 35.34299,
      "lng": 139.482298      
    }
  },
  {
    "id": "030",
    "name": "西台駅前店",
    "address":"〒174-0046 東京都板橋区蓮根３丁目９−7",
    "close": "日・祝",
    "open": "【月火木金】11：00～13：30/17：30～21：30 【水】11：00～13：00 【金】11：00～13：30/17：30～21：00 【土】9：30～12：30",
    "latLng": {
      "lat": 35.7869546,
      "lng": 139.6744374      
    }
  },
  {
    "id": "031",
    "name": "中山駅前店",
    "address":"〒226-0014 神奈川県横浜市緑区台村町３０９−1",
    "close": "木",
    "open": "11：00～14：00/18：00～21：30",
    "latLng": {
      "lat": 35.5131637,
      "lng": 139.5384092      
    }
  },
  {
    "id": "032",
    "name": "仙台店",
    "address":"〒980-0822 宮城県仙台市青葉区立町２−8",
    "close": "無休",
    "open": "【月〜土】11：30～14：30/17：00～21：00 【日】11：30～19：30",
    "latLng": {
      "lat": 38.2617113,
      "lng": 140.8661668      
    }
  },
  {
    "id": "033",
    "name": "札幌店",
    "address":"〒060-0806 北海道札幌市北区北６条西８丁目8-11",
    "close": "日・祝（不定休）",
    "open": "【平日】11：00～14：00/17：00～21：00 【土】11：00～15：00",
    "latLng": {
      "lat": 43.0673758,
      "lng": 141.3438484      
    }
  },
  {
    "id": "034",
    "name": "会津若松駅前店",
    "address":"〒965-0041 福島県会津若松市駅前町６−３１",
    "close": "第2第３日・祝（不定休）",
    "open": "【平日】11：00～14：00/17：00～21：00 【土日祝】11：00～15：00",
    "latLng": {
      "lat": 37.5066311,
      "lng": 139.9314421      
    }
  },
  {
    "id": "035",
    "name": "新潟店",
    "address":"〒950-0088 新潟県新潟市中央区万代５丁目２−8",
    "close": "月・木",
    "open": "【平日】11：00～14：00/16：30～21：00 【土日】　10：00～15：30",
    "latLng": {
      "lat": 37.9172338,
      "lng": 139.060082      
    }
  },
  {
    "id": "036",
    "name": "川越店",
    "address":"〒350-1126 埼玉県川越市旭町１丁目４−15",
    "close": "月曜日　木曜夜の部",
    "open": "【昼】11：00～14：00 【夜】18：00～21：00",
    "latLng": {
      "lat": 35.9027125,
      "lng": 139.4766103      
    }
  },
  {
    "id": "037",
    "name": "京都店",
    "address":"〒606-8117 京都府京都市左京区一乗寺里ノ前町4",
    "close": "水・不定休",
    "open": "【月~土】11：00～14：00/17：30～22：30 【日祝】11：00～16：00",
    "latLng": {
      "lat": 35.0438631,
      "lng": 135.7875248      
    }
  },
  {
    "id": "038",
    "name": "越谷店",
    "address":"〒343-0024 埼玉県越谷市越ヶ谷２丁目３−7",
    "close": "火",
    "open": "11：00～14：30/17：30～21：30",
    "latLng": {
      "lat": 35.8901457,
      "lng": 139.7876849      
    }
  },
  {
    "id": "039",
    "name": "前橋千代田町店",
    "address":"〒371-0022 群馬県前橋市千代田町４丁目１２−３",
    "close": "月",
    "open": "11：00～14：30/17：00～20：00",
    "latLng": {
      "lat": 36.3925443,
      "lng": 139.0710876      
    }
  },
  {
    "id": "040",
    "name": "千葉店",
    "address":"〒260-0013 千葉県千葉市中央区中央１丁目７−８",
    "close": "日曜日　不定休　祝日",
    "open": "11：00～14：30/17：00～21：30",
    "latLng": {
      "lat": 35.6105634,
      "lng": 140.1236034      
    }
  },
  {
    "id": "041",
    "name": "大宮公園駅前店",
    "address":"〒330-0805 埼玉県さいたま市大宮区寿能町１丁目２４",
    "close": "水",
    "open": "【月~土】11：00～14：00/17：00～20：30 【日】11:00~15:00",
    "latLng": {
      "lat": 35.9225547,
      "lng": 139.6319696      
    }
  }
]
